$GPRMC,013238,A,4047.533,N,11141.856,E,012.2,253.6,100517,,*1A
$GPGGA,013238,4047.533,N,11141.856,E,1,05,,1108,M,,M,,*57

$GPRMC,013239,A,4047.532,N,11141.852,E,011.3,254.3,100517,,*1E
$GPGGA,013239,4047.532,N,11141.852,E,1,05,,1106,M,,M,,*5D

$GPRMC,013239,A,4047.532,N,11141.852,E,011.3,254.3,100517,,*1E
$GPGGA,013239,4047.532,N,11141.852,E,1,05,,1106,M,,M,,*5D

$GPRMC,013241,A,4047.557,N,11141.837,E,012.3,252.0,100517,,*17
$GPGGA,013241,4047.557,N,11141.837,E,1,06,,1181,M,,M,,*5E

$GPRMC,013242,A,4047.563,N,11141.830,E,012.2,255.4,100517,,*16
$GPGGA,013242,4047.563,N,11141.830,E,1,06,,1199,M,,M,,*54

$GPRMC,013243,A,4047.561,N,11141.826,E,014.2,257.0,100517,,*12
$GPGGA,013243,4047.561,N,11141.826,E,1,06,,1195,M,,M,,*5C

$GPRMC,013244,A,4047.560,N,11141.821,E,014.5,258.9,100517,,*12
$GPGGA,013244,4047.560,N,11141.821,E,1,06,,1194,M,,M,,*5C

$GPRMC,013245,A,4047.559,N,11141.815,E,014.7,260.2,100517,,*1C
$GPGGA,013245,4047.559,N,11141.815,E,1,06,,1192,M,,M,,*56

$GPRMC,013246,A,4047.560,N,11141.810,E,014.6,259.4,100517,,*1D
$GPGGA,013246,4047.560,N,11141.810,E,1,06,,1194,M,,M,,*5C

$GPRMC,013247,A,4047.558,N,11141.806,E,013.9,252.7,100517,,*10
$GPGGA,013247,4047.558,N,11141.806,E,1,06,,1195,M,,M,,*50

$GPRMC,013248,A,4047.558,N,11141.800,E,014.7,257.7,100517,,*15
$GPGGA,013248,4047.558,N,11141.800,E,1,06,,1196,M,,M,,*5A

$GPRMC,013249,A,4047.555,N,11141.796,E,014.9,259.9,100517,,*17
$GPGGA,013249,4047.555,N,11141.796,E,1,07,,1184,M,,M,,*54

$GPRMC,013250,A,4047.551,N,11141.791,E,014.5,258.7,100517,,*1F
$GPGGA,013250,4047.551,N,11141.791,E,1,07,,1174,M,,M,,*50

$GPRMC,013251,A,4047.549,N,11141.787,E,012.9,254.0,100517,,*11
$GPGGA,013251,4047.549,N,11141.787,E,1,07,,1167,M,,M,,*5D

$GPRMC,013252,A,4047.547,N,11141.783,E,011.1,254.8,100517,,*1B
$GPGGA,013252,4047.547,N,11141.783,E,1,08,,1162,M,,M,,*5E

$GPRMC,013253,A,4047.548,N,11141.779,E,010.7,259.7,100517,,*15
$GPGGA,013253,4047.548,N,11141.779,E,1,08,,1159,M,,M,,*5D

$GPRMC,013254,A,4047.547,N,11141.776,E,009.6,273.7,100517,,*13
$GPGGA,013254,4047.547,N,11141.776,E,1,08,,1151,M,,M,,*52

$GPRMC,013255,A,4047.547,N,11141.771,E,009.3,298.6,100517,,*14
$GPGGA,013255,4047.547,N,11141.771,E,1,08,,1147,M,,M,,*53

$GPRMC,013256,A,4047.549,N,11141.769,E,011.0,327.2,100517,,*1B
$GPGGA,013256,4047.549,N,11141.769,E,1,08,,1147,M,,M,,*57

$GPRMC,013257,A,4047.552,N,11141.767,E,013.1,338.5,100517,,*14
$GPGGA,013257,4047.552,N,11141.767,E,1,08,,1147,M,,M,,*52

$GPRMC,013258,A,4047.556,N,11141.766,E,016.3,341.1,100517,,*13
$GPGGA,013258,4047.556,N,11141.766,E,1,08,,1146,M,,M,,*59

$GPRMC,013259,A,4047.560,N,11141.764,E,018.5,340.4,100517,,*19
$GPGGA,013259,4047.560,N,11141.764,E,1,08,,1145,M,,M,,*5C

$GPRMC,013300,A,4047.565,N,11141.762,E,020.1,339.9,100517,,*1B
$GPGGA,013300,4047.565,N,11141.762,E,1,08,,1144,M,,M,,*53

$GPRMC,013301,A,4047.571,N,11141.759,E,022.2,339.6,100517,,*19
$GPGGA,013301,4047.571,N,11141.759,E,1,08,,1144,M,,M,,*5F

$GPRMC,013302,A,4047.577,N,11141.757,E,022.7,339.2,100517,,*13
$GPGGA,013302,4047.577,N,11141.757,E,1,08,,1143,M,,M,,*53

$GPRMC,013303,A,4047.583,N,11141.754,E,023.3,338.7,100517,,*1B
$GPGGA,013303,4047.583,N,11141.754,E,1,08,,1142,M,,M,,*5B

$GPRMC,013304,A,4047.589,N,11141.751,E,022.5,339.4,100517,,*16
$GPGGA,013304,4047.589,N,11141.751,E,1,08,,1142,M,,M,,*53

$GPRMC,013305,A,4047.595,N,11141.748,E,022.2,339.1,100517,,*10
$GPGGA,013305,4047.595,N,11141.748,E,1,08,,1142,M,,M,,*57

$GPRMC,013306,A,4047.601,N,11141.746,E,021.9,339.9,100517,,*13
$GPGGA,013306,4047.601,N,11141.746,E,1,08,,1142,M,,M,,*54

$GPRMC,013307,A,4047.607,N,11141.743,E,021.4,340.3,100517,,*18
$GPGGA,013307,4047.607,N,11141.743,E,1,08,,1142,M,,M,,*56

$GPRMC,013308,A,4047.613,N,11141.741,E,020.6,341.2,100517,,*13
$GPGGA,013308,4047.613,N,11141.741,E,1,08,,1141,M,,M,,*5D

$GPRMC,013309,A,4047.618,N,11141.738,E,018.8,342.0,100517,,*13
$GPGGA,013309,4047.618,N,11141.738,E,1,08,,1142,M,,M,,*5A

$GPRMC,013310,A,4047.623,N,11141.737,E,016.5,342.1,100517,,*1E
$GPGGA,013310,4047.623,N,11141.737,E,1,08,,1141,M,,M,,*56

$GPRMC,013311,A,4047.627,N,11141.735,E,014.8,342.6,100517,,*11
$GPGGA,013311,4047.627,N,11141.735,E,1,09,,1140,M,,M,,*51

$GPRMC,013312,A,4047.631,N,11141.734,E,013.2,342.9,100517,,*16
$GPGGA,013312,4047.631,N,11141.734,E,1,09,,1140,M,,M,,*54

$GPRMC,013313,A,4047.634,N,11141.733,E,011.6,343.2,100517,,*19
$GPGGA,013313,4047.634,N,11141.733,E,1,09,,1139,M,,M,,*59

$GPRMC,013314,A,4047.637,N,11141.732,E,009.7,343.4,100517,,*12
$GPGGA,013314,4047.637,N,11141.732,E,1,09,,1139,M,,M,,*5C

$GPRMC,013315,A,4047.639,N,11141.731,E,008.0,343.5,100517,,*19
$GPGGA,013315,4047.639,N,11141.731,E,1,10,,1139,M,,M,,*58

$GPRMC,013316,A,4047.641,N,11141.730,E,007.1,343.4,100517,,*1B
$GPGGA,013316,4047.641,N,11141.730,E,1,08,,1140,M,,M,,*52

$GPRMC,013317,A,4047.643,N,11141.730,E,007.0,343.3,100517,,*1E
$GPGGA,013317,4047.643,N,11141.730,E,1,08,,1139,M,,M,,*5F

$GPRMC,013318,A,4047.645,N,11141.729,E,006.7,343.0,100517,,*1A
$GPGGA,013318,4047.645,N,11141.729,E,1,08,,1139,M,,M,,*5E

$GPRMC,013319,A,4047.646,N,11141.728,E,005.6,343.0,100517,,*1B
$GPGGA,013319,4047.646,N,11141.728,E,1,08,,1138,M,,M,,*5C

$GPRMC,013320,A,4047.647,N,11141.728,E,003.9,338.0,100517,,*15
$GPGGA,013320,4047.647,N,11141.728,E,1,08,,1137,M,,M,,*58

$GPRMC,013321,A,4047.648,N,11141.727,E,002.4,338.0,100517,,*18
$GPGGA,013321,4047.648,N,11141.727,E,1,08,,1137,M,,M,,*59

$GPRMC,013322,A,4047.648,N,11141.727,E,001.4,338.0,100517,,*18
$GPGGA,013322,4047.648,N,11141.727,E,1,08,,1136,M,,M,,*5B

$GPRMC,013323,A,4047.648,N,11141.727,E,000.9,338.0,100517,,*15
$GPGGA,013323,4047.648,N,11141.727,E,1,09,,1135,M,,M,,*58

$GPRMC,013324,A,4047.648,N,11141.727,E,000.9,338.0,100517,,*12
$GPGGA,013324,4047.648,N,11141.727,E,1,09,,1135,M,,M,,*5F

$GPRMC,013325,A,4047.617,N,11141.721,E,001.1,338.0,100517,,*16
$GPGGA,013325,4047.617,N,11141.721,E,1,10,,1132,M,,M,,*5D

$GPRMC,013326,A,4047.617,N,11141.720,E,001.1,338.0,100517,,*14
$GPGGA,013326,4047.617,N,11141.720,E,1,09,,1128,M,,M,,*5C

$GPRMC,013327,A,4047.617,N,11141.721,E,001.0,338.0,100517,,*15
$GPGGA,013327,4047.617,N,11141.721,E,1,09,,1122,M,,M,,*56

$GPRMC,013328,A,4047.618,N,11141.722,E,001.3,338.0,100517,,*15
$GPGGA,013328,4047.618,N,11141.722,E,1,09,,1119,M,,M,,*5D

$GPRMC,013329,A,4047.618,N,11141.722,E,001.5,338.0,100517,,*12
$GPGGA,013329,4047.618,N,11141.722,E,1,09,,1115,M,,M,,*50

$GPRMC,013330,A,4047.618,N,11141.723,E,000.0,338.0,100517,,*1F
$GPGGA,013330,4047.618,N,11141.723,E,1,09,,1113,M,,M,,*5F

$GPRMC,013331,A,4047.617,N,11141.726,E,000.0,338.0,100517,,*14
$GPGGA,013331,4047.617,N,11141.726,E,1,10,,1101,M,,M,,*5F

$GPRMC,013332,A,4047.616,N,11141.728,E,000.0,338.0,100517,,*18
$GPGGA,013332,4047.616,N,11141.728,E,1,10,,1092,M,,M,,*58

$GPRMC,013333,A,4047.617,N,11141.734,E,000.0,338.0,100517,,*15
$GPGGA,013333,4047.617,N,11141.734,E,1,10,,1071,M,,M,,*58

$GPRMC,013334,A,4047.617,N,11141.736,E,000.0,338.0,100517,,*10
$GPGGA,013334,4047.617,N,11141.736,E,1,10,,1063,M,,M,,*5E

$GPRMC,013335,A,4047.617,N,11141.736,E,000.1,338.0,100517,,*10
$GPGGA,013335,4047.617,N,11141.736,E,1,10,,1062,M,,M,,*5E

$GPRMC,013336,A,4047.618,N,11141.736,E,000.2,338.0,100517,,*1F
$GPGGA,013336,4047.618,N,11141.736,E,1,10,,1061,M,,M,,*51

$GPRMC,013337,A,4047.618,N,11141.736,E,000.3,338.0,100517,,*1F
$GPGGA,013337,4047.618,N,11141.736,E,1,10,,1060,M,,M,,*51

$GPRMC,013338,A,4047.619,N,11141.735,E,000.3,338.0,100517,,*12
$GPGGA,013338,4047.619,N,11141.735,E,1,10,,1060,M,,M,,*5C

$GPRMC,013339,A,4047.620,N,11141.735,E,000.1,338.0,100517,,*1B
$GPGGA,013339,4047.620,N,11141.735,E,1,10,,1059,M,,M,,*5D

$GPRMC,013340,A,4047.620,N,11141.735,E,000.0,338.0,100517,,*14
$GPGGA,013340,4047.620,N,11141.735,E,1,09,,1058,M,,M,,*5A

$GPRMC,013341,A,4047.621,N,11141.735,E,000.0,338.0,100517,,*14
$GPGGA,013341,4047.621,N,11141.735,E,1,09,,1058,M,,M,,*5A

$GPRMC,013342,A,4047.621,N,11141.735,E,000.0,338.0,100517,,*17
$GPGGA,013342,4047.621,N,11141.735,E,1,09,,1058,M,,M,,*59

$GPRMC,013343,A,4047.621,N,11141.735,E,000.0,338.0,100517,,*16
$GPGGA,013343,4047.621,N,11141.735,E,1,09,,1058,M,,M,,*58

$GPRMC,013344,A,4047.621,N,11141.735,E,000.0,338.0,100517,,*11
$GPGGA,013344,4047.621,N,11141.735,E,1,09,,1058,M,,M,,*5F

$GPRMC,013345,A,4047.621,N,11141.735,E,000.0,338.0,100517,,*10
$GPGGA,013345,4047.621,N,11141.735,E,1,09,,1058,M,,M,,*5E

$GPRMC,013346,A,4047.621,N,11141.735,E,000.0,338.0,100517,,*13
$GPGGA,013346,4047.621,N,11141.735,E,1,09,,1058,M,,M,,*5D

$GPRMC,013347,A,4047.621,N,11141.735,E,000.0,338.0,100517,,*12
$GPGGA,013347,4047.621,N,11141.735,E,1,09,,1058,M,,M,,*5C

$GPRMC,013348,A,4047.621,N,11141.735,E,000.0,338.0,100517,,*1D
$GPGGA,013348,4047.621,N,11141.735,E,1,09,,1058,M,,M,,*53

$GPRMC,013349,A,4047.621,N,11141.735,E,000.0,338.0,100517,,*1C
$GPGGA,013349,4047.621,N,11141.735,E,1,09,,1058,M,,M,,*52

$GPRMC,013350,A,4047.621,N,11141.735,E,000.0,338.0,100517,,*14
$GPGGA,013350,4047.621,N,11141.735,E,1,09,,1058,M,,M,,*5A

$GPRMC,013351,A,4047.621,N,11141.735,E,000.0,338.0,100517,,*15
$GPGGA,013351,4047.621,N,11141.735,E,1,09,,1058,M,,M,,*5B

$GPRMC,013352,A,4047.621,N,11141.735,E,000.0,338.0,100517,,*16
$GPGGA,013352,4047.621,N,11141.735,E,1,09,,1058,M,,M,,*58

$GPRMC,013353,A,4047.621,N,11141.735,E,000.0,338.0,100517,,*17
$GPGGA,013353,4047.621,N,11141.735,E,1,09,,1058,M,,M,,*59

$GPRMC,013354,A,4047.621,N,11141.735,E,000.0,338.0,100517,,*10
$GPGGA,013354,4047.621,N,11141.735,E,1,09,,1058,M,,M,,*5E

$GPRMC,013355,A,4047.621,N,11141.735,E,000.0,338.0,100517,,*11
$GPGGA,013355,4047.621,N,11141.735,E,1,09,,1058,M,,M,,*5F

$GPRMC,013356,A,4047.621,N,11141.735,E,000.0,338.0,100517,,*12
$GPGGA,013356,4047.621,N,11141.735,E,1,09,,1058,M,,M,,*5C

$GPRMC,013357,A,4047.621,N,11141.735,E,000.0,338.0,100517,,*13
$GPGGA,013357,4047.621,N,11141.735,E,1,10,,1058,M,,M,,*55

$GPRMC,013358,A,4047.621,N,11141.735,E,000.0,338.0,100517,,*1C
$GPGGA,013358,4047.621,N,11141.735,E,1,10,,1058,M,,M,,*5A

$GPRMC,013359,A,4047.621,N,11141.735,E,000.0,338.0,100517,,*1D
$GPGGA,013359,4047.621,N,11141.735,E,1,10,,1058,M,,M,,*5B

$GPRMC,013400,A,4047.621,N,11141.735,E,000.0,338.0,100517,,*16
$GPGGA,013400,4047.621,N,11141.735,E,1,10,,1058,M,,M,,*50

$GPRMC,013401,A,4047.621,N,11141.735,E,000.0,338.0,100517,,*17
$GPGGA,013401,4047.621,N,11141.735,E,1,09,,1058,M,,M,,*59

$GPRMC,013402,A,4047.621,N,11141.735,E,000.0,338.0,100517,,*14
$GPGGA,013402,4047.621,N,11141.735,E,1,09,,1058,M,,M,,*5A

$GPRMC,013403,A,4047.621,N,11141.735,E,000.0,338.0,100517,,*15
$GPGGA,013403,4047.621,N,11141.735,E,1,09,,1058,M,,M,,*5B

$GPRMC,013404,A,4047.621,N,11141.735,E,000.0,338.0,100517,,*12
$GPGGA,013404,4047.621,N,11141.735,E,1,09,,1058,M,,M,,*5C

$GPRMC,013405,A,4047.621,N,11141.735,E,000.0,338.0,100517,,*13
$GPGGA,013405,4047.621,N,11141.735,E,1,09,,1058,M,,M,,*5D

$GPRMC,013406,A,4047.621,N,11141.735,E,000.0,338.0,100517,,*10
$GPGGA,013406,4047.621,N,11141.735,E,1,09,,1058,M,,M,,*5E

$GPRMC,013407,A,4047.621,N,11141.735,E,000.0,338.0,100517,,*11
$GPGGA,013407,4047.621,N,11141.735,E,1,09,,1058,M,,M,,*5F

$GPRMC,013408,A,4047.621,N,11141.735,E,000.0,338.0,100517,,*1E
$GPGGA,013408,4047.621,N,11141.735,E,1,09,,1058,M,,M,,*50

$GPRMC,013409,A,4047.622,N,11141.734,E,000.6,338.0,100517,,*1B
$GPGGA,013409,4047.622,N,11141.734,E,1,09,,1058,M,,M,,*53

$GPRMC,013410,A,4047.622,N,11141.734,E,000.8,338.0,100517,,*1D
$GPGGA,013410,4047.622,N,11141.734,E,1,09,,1058,M,,M,,*5B

$GPRMC,013411,A,4047.623,N,11141.734,E,001.0,338.0,100517,,*14
$GPGGA,013411,4047.623,N,11141.734,E,1,10,,1058,M,,M,,*53

$GPRMC,013412,A,4047.623,N,11141.734,E,001.3,338.0,100517,,*14
$GPGGA,013412,4047.623,N,11141.734,E,1,10,,1058,M,,M,,*50

$GPRMC,013413,A,4047.623,N,11141.734,E,001.7,338.0,100517,,*11
$GPGGA,013413,4047.623,N,11141.734,E,1,10,,1058,M,,M,,*51

$GPRMC,013414,A,4047.624,N,11141.734,E,002.3,338.0,100517,,*16
$GPGGA,013414,4047.624,N,11141.734,E,1,10,,1058,M,,M,,*51

$GPRMC,013415,A,4047.624,N,11141.733,E,003.1,339.1,100517,,*13
$GPGGA,013415,4047.624,N,11141.733,E,1,10,,1058,M,,M,,*57

$GPRMC,013416,A,4047.626,N,11141.733,E,001.5,340.7,100517,,*1C
$GPGGA,013416,4047.626,N,11141.733,E,1,10,,1058,M,,M,,*56

$GPRMC,013417,A,4047.626,N,11141.733,E,000.0,340.7,100517,,*19
$GPGGA,013417,4047.626,N,11141.733,E,1,10,,1058,M,,M,,*57

$GPRMC,013418,A,4047.627,N,11141.733,E,000.0,340.7,100517,,*17
$GPGGA,013418,4047.627,N,11141.733,E,1,10,,1058,M,,M,,*59

$GPRMC,013419,A,4047.627,N,11141.733,E,000.0,340.7,100517,,*16
$GPGGA,013419,4047.627,N,11141.733,E,1,10,,1058,M,,M,,*58

$GPRMC,013420,A,4047.627,N,11141.733,E,000.0,340.7,100517,,*1C
$GPGGA,013420,4047.627,N,11141.733,E,1,09,,1058,M,,M,,*5A

$GPRMC,013421,A,4047.627,N,11141.733,E,000.0,340.7,100517,,*1D
$GPGGA,013421,4047.627,N,11141.733,E,1,09,,1058,M,,M,,*5B

$GPRMC,013422,A,4047.627,N,11141.733,E,000.0,340.7,100517,,*1E
$GPGGA,013422,4047.627,N,11141.733,E,1,09,,1058,M,,M,,*58

$GPRMC,013423,A,4047.627,N,11141.733,E,000.0,340.7,100517,,*1F
$GPGGA,013423,4047.627,N,11141.733,E,1,08,,1058,M,,M,,*58

$GPRMC,013424,A,4047.627,N,11141.733,E,000.0,340.7,100517,,*18
$GPGGA,013424,4047.627,N,11141.733,E,1,10,,1058,M,,M,,*56

$GPRMC,013425,A,4047.627,N,11141.733,E,000.0,340.7,100517,,*19
$GPGGA,013425,4047.627,N,11141.733,E,1,09,,1058,M,,M,,*5F

$GPRMC,013426,A,4047.627,N,11141.733,E,000.0,340.7,100517,,*1A
$GPGGA,013426,4047.627,N,11141.733,E,1,09,,1058,M,,M,,*5C

$GPRMC,013427,A,4047.627,N,11141.733,E,000.0,340.7,100517,,*1B
$GPGGA,013427,4047.627,N,11141.733,E,1,09,,1058,M,,M,,*5D

$GPRMC,013428,A,4047.627,N,11141.733,E,000.0,340.7,100517,,*14
$GPGGA,013428,4047.627,N,11141.733,E,1,10,,1058,M,,M,,*5A

$GPRMC,013429,A,4047.627,N,11141.733,E,000.0,340.7,100517,,*15
$GPGGA,013429,4047.627,N,11141.733,E,1,10,,1058,M,,M,,*5B

$GPRMC,013430,A,4047.627,N,11141.733,E,000.0,340.7,100517,,*1D
$GPGGA,013430,4047.627,N,11141.733,E,1,10,,1058,M,,M,,*53

$GPRMC,013431,A,4047.627,N,11141.733,E,000.0,340.7,100517,,*1C
$GPGGA,013431,4047.627,N,11141.733,E,1,10,,1058,M,,M,,*52

$GPRMC,013432,A,4047.627,N,11141.733,E,000.0,340.7,100517,,*1F
$GPGGA,013432,4047.627,N,11141.733,E,1,10,,1058,M,,M,,*51

$GPRMC,013433,A,4047.627,N,11141.733,E,000.0,340.7,100517,,*1E
$GPGGA,013433,4047.627,N,11141.733,E,1,10,,1058,M,,M,,*50

$GPRMC,013434,A,4047.627,N,11141.733,E,000.0,340.7,100517,,*19
$GPGGA,013434,4047.627,N,11141.733,E,1,10,,1058,M,,M,,*57

$GPRMC,013435,A,4047.627,N,11141.733,E,000.0,340.7,100517,,*18
$GPGGA,013435,4047.627,N,11141.733,E,1,10,,1058,M,,M,,*56

$GPRMC,013436,A,4047.627,N,11141.733,E,000.0,340.7,100517,,*1B
$GPGGA,013436,4047.627,N,11141.733,E,1,10,,1058,M,,M,,*55

$GPRMC,013437,A,4047.627,N,11141.733,E,000.4,340.7,100517,,*1E
$GPGGA,013437,4047.627,N,11141.733,E,1,10,,1058,M,,M,,*54

$GPRMC,013438,A,4047.627,N,11141.733,E,000.4,340.7,100517,,*11
$GPGGA,013438,4047.627,N,11141.733,E,1,10,,1058,M,,M,,*5B

$GPRMC,013439,A,4047.627,N,11141.733,E,000.4,340.7,100517,,*10
$GPGGA,013439,4047.627,N,11141.733,E,1,10,,1058,M,,M,,*5A

$GPRMC,013440,A,4047.627,N,11141.733,E,000.6,337.5,100517,,*1E
$GPGGA,013440,4047.627,N,11141.733,E,1,10,,1058,M,,M,,*54

$GPRMC,013441,A,4047.627,N,11141.733,E,000.6,349.7,100517,,*14
$GPGGA,013441,4047.627,N,11141.733,E,1,10,,1057,M,,M,,*5A

$GPRMC,013442,A,4047.627,N,11141.733,E,000.9,348.5,100517,,*1B
$GPGGA,013442,4047.627,N,11141.733,E,1,10,,1057,M,,M,,*59

$GPRMC,013443,A,4047.627,N,11141.733,E,000.9,347.2,100517,,*12
$GPGGA,013443,4047.627,N,11141.733,E,1,10,,1057,M,,M,,*58

$GPRMC,013444,A,4047.628,N,11141.732,E,001.1,348.9,100517,,*16
$GPGGA,013444,4047.628,N,11141.732,E,1,10,,1058,M,,M,,*5E

$GPRMC,013445,A,4047.628,N,11141.732,E,001.5,340.0,100517,,*12
$GPGGA,013445,4047.628,N,11141.732,E,1,10,,1057,M,,M,,*50

$GPRMC,013446,A,4047.628,N,11141.732,E,001.9,341.0,100517,,*1C
$GPGGA,013446,4047.628,N,11141.732,E,1,10,,1057,M,,M,,*53

$GPRMC,013447,A,4047.629,N,11141.731,E,002.5,341.4,100517,,*14
$GPGGA,013447,4047.629,N,11141.731,E,1,09,,1057,M,,M,,*58

$GPRMC,013448,A,4047.630,N,11141.731,E,004.1,339.1,100517,,*1B
$GPGGA,013448,4047.630,N,11141.731,E,1,09,,1057,M,,M,,*5F

$GPRMC,013449,A,4047.631,N,11141.729,E,005.1,337.8,100517,,*14
$GPGGA,013449,4047.631,N,11141.729,E,1,09,,1057,M,,M,,*56

$GPRMC,013450,A,4047.633,N,11141.729,E,007.0,337.0,100517,,*15
$GPGGA,013450,4047.633,N,11141.729,E,1,09,,1057,M,,M,,*5C

$GPRMC,013451,A,4047.635,N,11141.727,E,007.4,336.4,100517,,*1D
$GPGGA,013451,4047.635,N,11141.727,E,1,09,,1058,M,,M,,*5A

$GPRMC,013452,A,4047.637,N,11141.726,E,008.8,335.9,100517,,*10
$GPGGA,013452,4047.637,N,11141.726,E,1,09,,1058,M,,M,,*5A

$GPRMC,013453,A,4047.640,N,11141.724,E,009.7,335.1,100517,,*15
$GPGGA,013453,4047.640,N,11141.724,E,1,09,,1058,M,,M,,*59

$GPRMC,013454,A,4047.642,N,11141.722,E,009.1,334.8,100517,,*18
$GPGGA,013454,4047.642,N,11141.722,E,1,09,,1058,M,,M,,*5A

$GPRMC,013455,A,4047.645,N,11141.721,E,008.4,335.7,100517,,*17
$GPGGA,013455,4047.645,N,11141.721,E,1,09,,1058,M,,M,,*5F

$GPRMC,013456,A,4047.647,N,11141.720,E,009.3,337.2,100517,,*16
$GPGGA,013456,4047.647,N,11141.720,E,1,09,,1058,M,,M,,*5F

$GPRMC,013457,A,4047.649,N,11141.719,E,008.8,338.4,100517,,*10
$GPGGA,013457,4047.649,N,11141.719,E,1,09,,1058,M,,M,,*5A

$GPRMC,013458,A,4047.651,N,11141.718,E,008.5,340.7,100517,,*16
$GPGGA,013458,4047.651,N,11141.718,E,1,09,,1058,M,,M,,*5D

$GPRMC,013459,A,4047.654,N,11141.717,E,010.0,343.2,100517,,*17
$GPGGA,013459,4047.654,N,11141.717,E,1,10,,1058,M,,M,,*5E

$GPRMC,013500,A,4047.657,N,11141.716,E,011.9,345.1,100517,,*15
$GPGGA,013500,4047.657,N,11141.716,E,1,10,,1058,M,,M,,*51

$GPRMC,013501,A,4047.660,N,11141.715,E,012.3,345.6,100517,,*1D
$GPGGA,013501,4047.660,N,11141.715,E,1,10,,1057,M,,M,,*58

$GPRMC,013502,A,4047.664,N,11141.714,E,012.0,346.5,100517,,*18
$GPGGA,013502,4047.664,N,11141.714,E,1,10,,1057,M,,M,,*5E

$GPRMC,013503,A,4047.667,N,11141.713,E,012.9,345.5,100517,,*17
$GPGGA,013503,4047.667,N,11141.713,E,1,10,,1057,M,,M,,*5B

$GPRMC,013504,A,4047.670,N,11141.711,E,012.3,343.8,100517,,*15
$GPGGA,013504,4047.670,N,11141.711,E,1,09,,1058,M,,M,,*5F

$GPRMC,013505,A,4047.674,N,11141.709,E,012.4,342.7,100517,,*10
$GPGGA,013505,4047.674,N,11141.709,E,1,10,,1057,M,,M,,*54

$GPRMC,013506,A,4047.677,N,11141.708,E,012.1,342.1,100517,,*12
$GPGGA,013506,4047.677,N,11141.708,E,1,09,,1057,M,,M,,*5D

$GPRMC,013507,A,4047.680,N,11141.707,E,011.8,341.1,100517,,*1D
$GPGGA,013507,4047.680,N,11141.707,E,1,09,,1057,M,,M,,*5B

$GPRMC,013508,A,4047.683,N,11141.705,E,011.3,340.8,100517,,*10
$GPGGA,013508,4047.683,N,11141.705,E,1,09,,1057,M,,M,,*55

$GPRMC,013509,A,4047.686,N,11141.704,E,009.5,341.0,100517,,*13
$GPGGA,013509,4047.686,N,11141.704,E,1,09,,1057,M,,M,,*50

$GPRMC,013510,A,4047.688,N,11141.704,E,008.9,340.9,100517,,*10
$GPGGA,013510,4047.688,N,11141.704,E,1,09,,1058,M,,M,,*59

$GPRMC,013511,A,4047.690,N,11141.703,E,009.0,341.5,100517,,*1A
$GPGGA,013511,4047.690,N,11141.703,E,1,09,,1058,M,,M,,*56

$GPRMC,013512,A,4047.693,N,11141.702,E,009.4,342.1,100517,,*18
$GPGGA,013512,4047.693,N,11141.702,E,1,09,,1057,M,,M,,*58

$GPRMC,013513,A,4047.695,N,11141.701,E,008.3,343.1,100517,,*1B
$GPGGA,013513,4047.695,N,11141.701,E,1,09,,1057,M,,M,,*5C

$GPRMC,013514,A,4047.697,N,11141.701,E,006.0,342.0,100517,,*13
$GPGGA,013514,4047.697,N,11141.701,E,1,09,,1057,M,,M,,*59

$GPRMC,013515,A,4047.699,N,11141.700,E,005.3,341.7,100517,,*19
$GPGGA,013515,4047.699,N,11141.700,E,1,09,,1057,M,,M,,*57

$GPRMC,013516,A,4047.700,N,11141.700,E,004.9,343.9,100517,,*1C
$GPGGA,013516,4047.700,N,11141.700,E,1,09,,1056,M,,M,,*54

$GPRMC,013517,A,4047.701,N,11141.699,E,002.4,343.9,100517,,*16
$GPGGA,013517,4047.701,N,11141.699,E,1,09,,1056,M,,M,,*55

$GPRMC,013518,A,4047.702,N,11141.700,E,002.0,343.9,100517,,*1F
$GPGGA,013518,4047.702,N,11141.700,E,1,09,,1056,M,,M,,*58

$GPRMC,013519,A,4047.702,N,11141.700,E,002.3,343.9,100517,,*1D
$GPGGA,013519,4047.702,N,11141.700,E,1,09,,1057,M,,M,,*58

$GPRMC,013520,A,4047.703,N,11141.701,E,003.1,333.9,100517,,*13
$GPGGA,013520,4047.703,N,11141.701,E,1,09,,1057,M,,M,,*52

$GPRMC,013521,A,4047.704,N,11141.700,E,005.7,334.5,100517,,*1F
$GPGGA,013521,4047.704,N,11141.700,E,1,08,,1057,M,,M,,*54

$GPRMC,013522,A,4047.706,N,11141.700,E,009.4,335.5,100517,,*10
$GPGGA,013522,4047.706,N,11141.700,E,1,08,,1057,M,,M,,*55

$GPRMC,013523,A,4047.710,N,11141.699,E,013.1,336.1,100517,,*1E
$GPGGA,013523,4047.710,N,11141.699,E,1,08,,1057,M,,M,,*52

$GPRMC,013524,A,4047.713,N,11141.698,E,013.1,336.7,100517,,*1D
$GPGGA,013524,4047.713,N,11141.698,E,1,08,,1057,M,,M,,*57

$GPRMC,013525,A,4047.716,N,11141.697,E,009.2,339.7,100517,,*11
$GPGGA,013525,4047.716,N,11141.697,E,1,08,,1057,M,,M,,*5C

$GPRMC,013526,A,4047.718,N,11141.696,E,004.5,347.2,100517,,*1B
$GPGGA,013526,4047.718,N,11141.696,E,1,08,,1057,M,,M,,*50

$GPRMC,013527,A,4047.719,N,11141.696,E,000.0,347.2,100517,,*1A
$GPGGA,013527,4047.719,N,11141.696,E,1,08,,1057,M,,M,,*50

$GPRMC,013528,A,4047.719,N,11141.696,E,000.0,347.2,100517,,*15
$GPGGA,013528,4047.719,N,11141.696,E,1,08,,1057,M,,M,,*5F

$GPRMC,013529,A,4047.719,N,11141.695,E,000.0,347.2,100517,,*17
$GPGGA,013529,4047.719,N,11141.695,E,1,08,,1057,M,,M,,*5D

$GPRMC,013530,A,4047.719,N,11141.695,E,000.0,347.2,100517,,*1F
$GPGGA,013530,4047.719,N,11141.695,E,1,07,,1057,M,,M,,*5A

$GPRMC,013531,A,4047.719,N,11141.695,E,000.0,347.2,100517,,*1E
$GPGGA,013531,4047.719,N,11141.695,E,1,08,,1057,M,,M,,*54

$GPRMC,013532,A,4047.719,N,11141.695,E,000.0,347.2,100517,,*1D
$GPGGA,013532,4047.719,N,11141.695,E,1,08,,1057,M,,M,,*57

$GPRMC,013533,A,4047.719,N,11141.695,E,000.0,347.2,100517,,*1C
$GPGGA,013533,4047.719,N,11141.695,E,1,08,,1057,M,,M,,*56

$GPRMC,013534,A,4047.719,N,11141.695,E,000.0,347.2,100517,,*1B
$GPGGA,013534,4047.719,N,11141.695,E,1,08,,1057,M,,M,,*51

$GPRMC,013535,A,4047.719,N,11141.695,E,000.0,347.2,100517,,*1A
$GPGGA,013535,4047.719,N,11141.695,E,1,07,,1057,M,,M,,*5F

$GPRMC,013536,A,4047.719,N,11141.695,E,000.0,347.2,100517,,*19
$GPGGA,013536,4047.719,N,11141.695,E,1,07,,1057,M,,M,,*5C

$GPRMC,013537,A,4047.719,N,11141.695,E,000.0,347.2,100517,,*18
$GPGGA,013537,4047.719,N,11141.695,E,1,07,,1057,M,,M,,*5D

$GPRMC,013538,A,4047.719,N,11141.695,E,000.0,347.2,100517,,*17
$GPGGA,013538,4047.719,N,11141.695,E,1,07,,1057,M,,M,,*52

$GPRMC,013539,A,4047.719,N,11141.695,E,000.0,347.2,100517,,*16
$GPGGA,013539,4047.719,N,11141.695,E,1,07,,1057,M,,M,,*53

$GPRMC,013540,A,4047.719,N,11141.695,E,000.0,347.2,100517,,*18
$GPGGA,013540,4047.719,N,11141.695,E,1,07,,1057,M,,M,,*5D

$GPRMC,013541,A,4047.719,N,11141.695,E,000.0,347.2,100517,,*19
$GPGGA,013541,4047.719,N,11141.695,E,2,07,,1057,M,,M,,*5F

$GPRMC,013542,A,4047.719,N,11141.695,E,000.0,347.2,100517,,*1A
$GPGGA,013542,4047.719,N,11141.695,E,2,07,,1057,M,,M,,*5C

$GPRMC,013543,A,4047.719,N,11141.695,E,000.0,347.2,100517,,*1B
$GPGGA,013543,4047.719,N,11141.695,E,2,07,,1057,M,,M,,*5D

$GPRMC,013544,A,4047.719,N,11141.695,E,000.0,347.2,100517,,*1C
$GPGGA,013544,4047.719,N,11141.695,E,2,07,,1057,M,,M,,*5A

$GPRMC,013545,A,4047.719,N,11141.695,E,000.0,347.2,100517,,*1D
$GPGGA,013545,4047.719,N,11141.695,E,2,07,,1057,M,,M,,*5B

$GPRMC,013546,A,4047.719,N,11141.695,E,000.0,347.2,100517,,*1E
$GPGGA,013546,4047.719,N,11141.695,E,2,07,,1057,M,,M,,*58

$GPRMC,013547,A,4047.719,N,11141.695,E,000.0,347.2,100517,,*1F
$GPGGA,013547,4047.719,N,11141.695,E,2,07,,1057,M,,M,,*59

$GPRMC,013548,A,4047.719,N,11141.695,E,000.0,347.2,100517,,*10
$GPGGA,013548,4047.719,N,11141.695,E,2,07,,1057,M,,M,,*56

$GPRMC,013549,A,4047.719,N,11141.695,E,000.0,347.2,100517,,*11
$GPGGA,013549,4047.719,N,11141.695,E,2,07,,1057,M,,M,,*57

$GPRMC,013550,A,4047.719,N,11141.695,E,000.0,347.2,100517,,*19
$GPGGA,013550,4047.719,N,11141.695,E,2,07,,1057,M,,M,,*5F

$GPRMC,013551,A,4047.719,N,11141.695,E,000.0,347.2,100517,,*18
$GPGGA,013551,4047.719,N,11141.695,E,2,07,,1057,M,,M,,*5E

$GPRMC,013552,A,4047.719,N,11141.695,E,000.0,347.2,100517,,*1B
$GPGGA,013552,4047.719,N,11141.695,E,2,07,,1057,M,,M,,*5D

$GPRMC,013553,A,4047.719,N,11141.695,E,000.0,347.2,100517,,*1A
$GPGGA,013553,4047.719,N,11141.695,E,2,07,,1057,M,,M,,*5C

$GPRMC,013554,A,4047.719,N,11141.695,E,000.0,347.2,100517,,*1D
$GPGGA,013554,4047.719,N,11141.695,E,2,08,,1057,M,,M,,*54

$GPRMC,013555,A,4047.719,N,11141.695,E,000.0,347.2,100517,,*1C
$GPGGA,013555,4047.719,N,11141.695,E,2,08,,1057,M,,M,,*55

$GPRMC,013556,A,4047.719,N,11141.695,E,000.0,347.2,100517,,*1F
$GPGGA,013556,4047.719,N,11141.695,E,2,08,,1057,M,,M,,*56

$GPRMC,013557,A,4047.719,N,11141.695,E,000.0,347.2,100517,,*1E
$GPGGA,013557,4047.719,N,11141.695,E,2,08,,1057,M,,M,,*57

$GPRMC,013558,A,4047.719,N,11141.695,E,000.0,347.2,100517,,*11
$GPGGA,013558,4047.719,N,11141.695,E,2,08,,1057,M,,M,,*58

$GPRMC,013559,A,4047.719,N,11141.695,E,000.0,347.2,100517,,*10
$GPGGA,013559,4047.719,N,11141.695,E,2,08,,1057,M,,M,,*59

$GPRMC,013600,A,4047.719,N,11141.695,E,000.0,347.2,100517,,*1F
$GPGGA,013600,4047.719,N,11141.695,E,2,09,,1057,M,,M,,*57

$GPRMC,013601,A,4047.719,N,11141.695,E,000.0,347.2,100517,,*1E
$GPGGA,013601,4047.719,N,11141.695,E,2,09,,1057,M,,M,,*56

$GPRMC,013602,A,4047.719,N,11141.695,E,000.0,347.2,100517,,*1D
$GPGGA,013602,4047.719,N,11141.695,E,2,09,,1057,M,,M,,*55

$GPRMC,013603,A,4047.719,N,11141.695,E,000.0,347.2,100517,,*1C
$GPGGA,013603,4047.719,N,11141.695,E,2,08,,1057,M,,M,,*55

$GPRMC,013604,A,4047.719,N,11141.695,E,000.0,347.2,100517,,*1B
$GPGGA,013604,4047.719,N,11141.695,E,2,08,,1057,M,,M,,*52

$GPRMC,013605,A,4047.719,N,11141.695,E,000.0,347.2,100517,,*1A
$GPGGA,013605,4047.719,N,11141.695,E,2,08,,1057,M,,M,,*53

$GPRMC,013606,A,4047.719,N,11141.695,E,000.0,347.2,100517,,*19
$GPGGA,013606,4047.719,N,11141.695,E,2,08,,1057,M,,M,,*50

$GPRMC,013607,A,4047.719,N,11141.695,E,000.0,347.2,100517,,*18
$GPGGA,013607,4047.719,N,11141.695,E,2,08,,1057,M,,M,,*51

$GPRMC,013608,A,4047.719,N,11141.695,E,000.0,347.2,100517,,*17
$GPGGA,013608,4047.719,N,11141.695,E,2,08,,1057,M,,M,,*5E

$GPRMC,013609,A,4047.719,N,11141.695,E,000.0,347.2,100517,,*16
$GPGGA,013609,4047.719,N,11141.695,E,2,08,,1057,M,,M,,*5F

$GPRMC,013610,A,4047.719,N,11141.695,E,000.0,347.2,100517,,*1E
$GPGGA,013610,4047.719,N,11141.695,E,2,08,,1057,M,,M,,*57

$GPRMC,013611,A,4047.719,N,11141.695,E,000.0,347.2,100517,,*1F
$GPGGA,013611,4047.719,N,11141.695,E,2,08,,1057,M,,M,,*56

$GPRMC,013612,A,4047.719,N,11141.695,E,000.0,347.2,100517,,*1C
$GPGGA,013612,4047.719,N,11141.695,E,2,08,,1057,M,,M,,*55

$GPRMC,013613,A,4047.719,N,11141.695,E,000.0,347.2,100517,,*1D
$GPGGA,013613,4047.719,N,11141.695,E,2,08,,1057,M,,M,,*54

$GPRMC,013614,A,4047.719,N,11141.695,E,000.0,347.2,100517,,*1A
$GPGGA,013614,4047.719,N,11141.695,E,2,08,,1057,M,,M,,*53

$GPRMC,013615,A,4047.719,N,11141.695,E,000.0,347.2,100517,,*1B
$GPGGA,013615,4047.719,N,11141.695,E,2,08,,1057,M,,M,,*52

$GPRMC,013616,A,4047.719,N,11141.695,E,000.0,347.2,100517,,*18
$GPGGA,013616,4047.719,N,11141.695,E,2,08,,1057,M,,M,,*51

$GPRMC,013617,A,4047.719,N,11141.695,E,000.0,347.2,100517,,*19
$GPGGA,013617,4047.719,N,11141.695,E,2,08,,1057,M,,M,,*50

$GPRMC,013618,A,4047.719,N,11141.695,E,000.0,347.2,100517,,*16
$GPGGA,013618,4047.719,N,11141.695,E,2,08,,1057,M,,M,,*5F

$GPRMC,013619,A,4047.719,N,11141.695,E,000.0,347.2,100517,,*17
$GPGGA,013619,4047.719,N,11141.695,E,2,08,,1057,M,,M,,*5E

$GPRMC,013620,A,4047.719,N,11141.695,E,000.0,347.2,100517,,*1D
$GPGGA,013620,4047.719,N,11141.695,E,2,08,,1057,M,,M,,*54

$GPRMC,013621,A,4047.719,N,11141.695,E,000.0,347.2,100517,,*1C
$GPGGA,013621,4047.719,N,11141.695,E,2,08,,1057,M,,M,,*55

$GPRMC,013622,A,4047.719,N,11141.695,E,000.0,347.2,100517,,*1F
$GPGGA,013622,4047.719,N,11141.695,E,2,08,,1057,M,,M,,*56

$GPRMC,013623,A,4047.719,N,11141.695,E,000.0,347.2,100517,,*1E
$GPGGA,013623,4047.719,N,11141.695,E,2,08,,1057,M,,M,,*57

$GPRMC,013624,A,4047.719,N,11141.695,E,000.0,347.2,100517,,*19
$GPGGA,013624,4047.719,N,11141.695,E,2,09,,1057,M,,M,,*51

$GPRMC,013625,A,4047.719,N,11141.695,E,000.0,347.2,100517,,*18
$GPGGA,013625,4047.719,N,11141.695,E,2,08,,1057,M,,M,,*51

$GPRMC,013626,A,4047.719,N,11141.695,E,000.0,347.2,100517,,*1B
$GPGGA,013626,4047.719,N,11141.695,E,2,09,,1057,M,,M,,*53

$GPRMC,013627,A,4047.719,N,11141.695,E,000.0,347.2,100517,,*1A
$GPGGA,013627,4047.719,N,11141.695,E,2,09,,1057,M,,M,,*52

$GPRMC,013628,A,4047.719,N,11141.695,E,000.0,347.2,100517,,*15
$GPGGA,013628,4047.719,N,11141.695,E,2,09,,1057,M,,M,,*5D

$GPRMC,013629,A,4047.719,N,11141.695,E,000.0,347.2,100517,,*14
$GPGGA,013629,4047.719,N,11141.695,E,2,09,,1057,M,,M,,*5C

$GPRMC,013630,A,4047.719,N,11141.695,E,000.0,347.2,100517,,*1C
$GPGGA,013630,4047.719,N,11141.695,E,2,10,,1057,M,,M,,*5C

$GPRMC,013631,A,4047.719,N,11141.695,E,000.0,347.2,100517,,*1D
$GPGGA,013631,4047.719,N,11141.695,E,2,09,,1057,M,,M,,*55

$GPRMC,013632,A,4047.719,N,11141.695,E,000.0,347.2,100517,,*1E
$GPGGA,013632,4047.719,N,11141.695,E,2,09,,1057,M,,M,,*56

$GPRMC,013633,A,4047.719,N,11141.695,E,000.0,347.2,100517,,*1F
$GPGGA,013633,4047.719,N,11141.695,E,2,09,,1057,M,,M,,*57

$GPRMC,013634,A,4047.719,N,11141.695,E,000.0,347.2,100517,,*18
$GPGGA,013634,4047.719,N,11141.695,E,2,09,,1057,M,,M,,*50

$GPRMC,013635,A,4047.719,N,11141.695,E,000.0,347.2,100517,,*19
$GPGGA,013635,4047.719,N,11141.695,E,2,09,,1057,M,,M,,*51

$GPRMC,013636,A,4047.719,N,11141.695,E,000.0,347.2,100517,,*1A
$GPGGA,013636,4047.719,N,11141.695,E,2,09,,1057,M,,M,,*52

$GPRMC,013637,A,4047.719,N,11141.695,E,000.0,347.2,100517,,*1B
$GPGGA,013637,4047.719,N,11141.695,E,2,09,,1057,M,,M,,*53

$GPRMC,013638,A,4047.719,N,11141.695,E,000.0,347.2,100517,,*14
$GPGGA,013638,4047.719,N,11141.695,E,2,09,,1057,M,,M,,*5C

$GPRMC,013639,A,4047.719,N,11141.695,E,000.0,347.2,100517,,*15
$GPGGA,013639,4047.719,N,11141.695,E,2,09,,1057,M,,M,,*5D

$GPRMC,013640,A,4047.719,N,11141.695,E,000.0,347.2,100517,,*1B
$GPGGA,013640,4047.719,N,11141.695,E,2,09,,1057,M,,M,,*53

$GPRMC,013641,A,4047.719,N,11141.695,E,000.0,347.2,100517,,*1A
$GPGGA,013641,4047.719,N,11141.695,E,2,09,,1057,M,,M,,*52

$GPRMC,013642,A,4047.719,N,11141.695,E,000.0,347.2,100517,,*19
$GPGGA,013642,4047.719,N,11141.695,E,2,09,,1057,M,,M,,*51

$GPRMC,013643,A,4047.719,N,11141.695,E,000.0,347.2,100517,,*18
$GPGGA,013643,4047.719,N,11141.695,E,2,09,,1057,M,,M,,*50

$GPRMC,013644,A,4047.719,N,11141.695,E,000.0,347.2,100517,,*1F
$GPGGA,013644,4047.719,N,11141.695,E,2,09,,1057,M,,M,,*57

$GPRMC,013645,A,4047.719,N,11141.695,E,000.0,347.2,100517,,*1E
$GPGGA,013645,4047.719,N,11141.695,E,2,09,,1057,M,,M,,*56

$GPRMC,013646,A,4047.719,N,11141.695,E,000.0,347.2,100517,,*1D
$GPGGA,013646,4047.719,N,11141.695,E,2,09,,1057,M,,M,,*55

$GPRMC,013647,A,4047.719,N,11141.695,E,000.0,347.2,100517,,*1C
$GPGGA,013647,4047.719,N,11141.695,E,2,10,,1057,M,,M,,*5C

$GPRMC,013648,A,4047.719,N,11141.695,E,000.0,347.2,100517,,*13
$GPGGA,013648,4047.719,N,11141.695,E,2,10,,1057,M,,M,,*53

$GPRMC,013649,A,4047.719,N,11141.695,E,000.0,347.2,100517,,*12
$GPGGA,013649,4047.719,N,11141.695,E,2,10,,1057,M,,M,,*52

$GPRMC,013650,A,4047.719,N,11141.695,E,000.0,347.2,100517,,*1A
$GPGGA,013650,4047.719,N,11141.695,E,2,10,,1057,M,,M,,*5A

$GPRMC,013651,A,4047.719,N,11141.695,E,000.0,347.2,100517,,*1B
$GPGGA,013651,4047.719,N,11141.695,E,2,10,,1057,M,,M,,*5B

$GPRMC,013652,A,4047.719,N,11141.695,E,000.0,347.2,100517,,*18
$GPGGA,013652,4047.719,N,11141.695,E,2,10,,1057,M,,M,,*58

$GPRMC,013653,A,4047.719,N,11141.695,E,000.0,347.2,100517,,*19
$GPGGA,013653,4047.719,N,11141.695,E,2,10,,1057,M,,M,,*59

$GPRMC,013654,A,4047.719,N,11141.695,E,000.0,347.2,100517,,*1E
$GPGGA,013654,4047.719,N,11141.695,E,2,10,,1057,M,,M,,*5E

$GPRMC,013655,A,4047.719,N,11141.695,E,000.0,347.2,100517,,*1F
$GPGGA,013655,4047.719,N,11141.695,E,2,10,,1057,M,,M,,*5F

$GPRMC,013656,A,4047.719,N,11141.695,E,000.0,347.2,100517,,*1C
$GPGGA,013656,4047.719,N,11141.695,E,2,10,,1057,M,,M,,*5C

$GPRMC,013657,A,4047.719,N,11141.695,E,000.0,347.2,100517,,*1D
$GPGGA,013657,4047.719,N,11141.695,E,2,10,,1057,M,,M,,*5D

$GPRMC,013658,A,4047.719,N,11141.695,E,000.0,347.2,100517,,*12
$GPGGA,013658,4047.719,N,11141.695,E,2,10,,1057,M,,M,,*52

$GPRMC,013659,A,4047.719,N,11141.695,E,000.0,347.2,100517,,*13
$GPGGA,013659,4047.719,N,11141.695,E,2,10,,1057,M,,M,,*53

$GPRMC,013700,A,4047.719,N,11141.695,E,000.0,347.2,100517,,*1E
$GPGGA,013700,4047.719,N,11141.695,E,2,10,,1057,M,,M,,*5E

$GPRMC,013701,A,4047.719,N,11141.695,E,000.0,347.2,100517,,*1F
$GPGGA,013701,4047.719,N,11141.695,E,2,10,,1057,M,,M,,*5F

$GPRMC,013702,A,4047.719,N,11141.695,E,000.0,347.2,100517,,*1C
$GPGGA,013702,4047.719,N,11141.695,E,2,10,,1057,M,,M,,*5C

$GPRMC,013703,A,4047.719,N,11141.695,E,000.0,347.2,100517,,*1D
$GPGGA,013703,4047.719,N,11141.695,E,2,10,,1057,M,,M,,*5D

$GPRMC,013704,A,4047.719,N,11141.695,E,000.0,347.2,100517,,*1A
$GPGGA,013704,4047.719,N,11141.695,E,2,10,,1057,M,,M,,*5A

$GPRMC,013705,A,4047.722,N,11141.691,E,003.5,343.1,100517,,*16
$GPGGA,013705,4047.722,N,11141.691,E,2,09,,1053,M,,M,,*5B

$GPRMC,013706,A,4047.724,N,11141.690,E,007.8,342.6,100517,,*1D
$GPGGA,013706,4047.724,N,11141.690,E,2,10,,1053,M,,M,,*57

$GPRMC,013707,A,4047.726,N,11141.688,E,011.0,339.3,100517,,*11
$GPGGA,013707,4047.726,N,11141.688,E,2,10,,1054,M,,M,,*5A

$GPRMC,013708,A,4047.730,N,11141.687,E,013.0,340.1,100517,,*18
$GPGGA,013708,4047.730,N,11141.687,E,2,10,,1054,M,,M,,*5D

$GPRMC,013709,A,4047.733,N,11141.685,E,014.8,339.4,100517,,*1C
$GPGGA,013709,4047.733,N,11141.685,E,2,10,,1054,M,,M,,*5D

$GPRMC,013710,A,4047.737,N,11141.682,E,015.9,338.5,100517,,*17
$GPGGA,013710,4047.737,N,11141.682,E,2,10,,1054,M,,M,,*56

$GPRMC,013711,A,4047.742,N,11141.680,E,016.0,337.7,100517,,*11
$GPGGA,013711,4047.742,N,11141.680,E,2,10,,1054,M,,M,,*57

$GPRMC,013712,A,4047.746,N,11141.678,E,016.2,338.3,100517,,*18
$GPGGA,013712,4047.746,N,11141.678,E,2,10,,1054,M,,M,,*57

$GPRMC,013713,A,4047.750,N,11141.676,E,017.8,338.1,100517,,*19
$GPGGA,013713,4047.750,N,11141.676,E,2,10,,1055,M,,M,,*5E

$GPRMC,013714,A,4047.755,N,11141.673,E,018.1,338.6,100517,,*1F
$GPGGA,013714,4047.755,N,11141.673,E,2,10,,1055,M,,M,,*59

$GPRMC,013715,A,4047.760,N,11141.670,E,019.6,338.8,100517,,*13
$GPGGA,013715,4047.760,N,11141.670,E,2,09,,1056,M,,M,,*56

$GPRMC,013716,A,4047.765,N,11141.668,E,020.3,338.1,100517,,*1A
$GPGGA,013716,4047.765,N,11141.668,E,2,10,,1056,M,,M,,*51

$GPRMC,013717,A,4047.770,N,11141.665,E,020.1,338.9,100517,,*18
$GPGGA,013717,4047.770,N,11141.665,E,2,09,,1056,M,,M,,*51

$GPRMC,013718,A,4047.776,N,11141.663,E,020.0,340.1,100517,,*11
$GPGGA,013718,4047.776,N,11141.663,E,2,09,,1056,M,,M,,*5E

$GPRMC,013719,A,4047.781,N,11141.660,E,020.8,341.3,100517,,*10
$GPGGA,013719,4047.781,N,11141.660,E,2,09,,1057,M,,M,,*55

$GPRMC,013720,A,4047.787,N,11141.658,E,021.8,342.9,100517,,*1F
$GPGGA,013720,4047.787,N,11141.658,E,2,10,,1057,M,,M,,*5A

$GPRMC,013721,A,4047.793,N,11141.656,E,022.9,344.0,100517,,*18
$GPGGA,013721,4047.793,N,11141.656,E,2,10,,1057,M,,M,,*50

$GPRMC,013722,A,4047.800,N,11141.653,E,023.5,343.0,100517,,*11
$GPGGA,013722,4047.800,N,11141.653,E,2,10,,1058,M,,M,,*5C

$GPRMC,013723,A,4047.806,N,11141.650,E,023.8,343.2,100517,,*1A
$GPGGA,013723,4047.806,N,11141.650,E,2,10,,1059,M,,M,,*59

$GPRMC,013724,A,4047.813,N,11141.648,E,023.1,343.9,100517,,*12
$GPGGA,013724,4047.813,N,11141.648,E,2,09,,1059,M,,M,,*5B

$GPRMC,013725,A,4047.818,N,11141.646,E,020.1,345.0,100517,,*1A
$GPGGA,013725,4047.818,N,11141.646,E,2,10,,1060,M,,M,,*5D

$GPRMC,013726,A,4047.823,N,11141.645,E,015.3,346.2,100517,,*17
$GPGGA,013726,4047.823,N,11141.645,E,2,09,,1060,M,,M,,*5D

$GPRMC,013727,A,4047.827,N,11141.644,E,012.5,346.7,100517,,*17
$GPGGA,013727,4047.827,N,11141.644,E,2,10,,1060,M,,M,,*51

$GPRMC,013728,A,4047.830,N,11141.642,E,010.5,345.8,100517,,*16
$GPGGA,013728,4047.830,N,11141.642,E,2,10,,1060,M,,M,,*5E

$GPRMC,013729,A,4047.832,N,11141.641,E,008.3,344.2,100517,,*12
$GPGGA,013729,4047.832,N,11141.641,E,2,10,,1060,M,,M,,*5E

$GPRMC,013730,A,4047.834,N,11141.640,E,006.9,342.0,100517,,*1D
$GPGGA,013730,4047.834,N,11141.640,E,2,10,,1060,M,,M,,*51

$GPRMC,013731,A,4047.836,N,11141.639,E,006.6,339.9,100517,,*1A
$GPGGA,013731,4047.836,N,11141.639,E,2,09,,1061,M,,M,,*55

$GPRMC,013732,A,4047.838,N,11141.638,E,008.6,337.9,100517,,*16
$GPGGA,013732,4047.838,N,11141.638,E,2,10,,1061,M,,M,,*51

$GPRMC,013733,A,4047.840,N,11141.637,E,011.8,337.2,100517,,*1A
$GPGGA,013733,4047.840,N,11141.637,E,2,09,,1061,M,,M,,*58

$GPRMC,013734,A,4047.844,N,11141.635,E,014.5,337.4,100517,,*15
$GPGGA,013734,4047.844,N,11141.635,E,2,10,,1061,M,,M,,*51

$GPRMC,013735,A,4047.848,N,11141.633,E,015.4,338.2,100517,,*17
$GPGGA,013735,4047.848,N,11141.633,E,2,09,,1061,M,,M,,*52

$GPRMC,013736,A,4047.853,N,11141.630,E,017.5,339.2,100517,,*1F
$GPGGA,013736,4047.853,N,11141.630,E,2,09,,1061,M,,M,,*58

$GPRMC,013737,A,4047.857,N,11141.628,E,018.4,339.8,100517,,*17
$GPGGA,013737,4047.857,N,11141.628,E,2,09,,1061,M,,M,,*54

$GPRMC,013738,A,4047.862,N,11141.626,E,018.4,340.5,100517,,*13
$GPGGA,013738,4047.862,N,11141.626,E,2,09,,1061,M,,M,,*53

$GPRMC,013739,A,4047.867,N,11141.623,E,019.0,341.4,100517,,*17
$GPGGA,013739,4047.867,N,11141.623,E,2,09,,1061,M,,M,,*52

$GPRMC,013740,A,4047.873,N,11141.621,E,018.7,342.5,100517,,*1A
$GPGGA,013740,4047.873,N,11141.621,E,2,09,,1062,M,,M,,*58

$GPRMC,013741,A,4047.878,N,11141.619,E,018.7,343.4,100517,,*1B
$GPGGA,013741,4047.878,N,11141.619,E,2,09,,1062,M,,M,,*59

$GPRMC,013742,A,4047.883,N,11141.617,E,019.3,343.7,100517,,*14
$GPGGA,013742,4047.883,N,11141.617,E,2,10,,1062,M,,M,,*58

$GPRMC,013743,A,4047.889,N,11141.615,E,019.8,343.1,100517,,*10
$GPGGA,013743,4047.889,N,11141.615,E,2,10,,1062,M,,M,,*51

$GPRMC,013744,A,4047.894,N,11141.612,E,019.5,341.8,100517,,*1A
$GPGGA,013744,4047.894,N,11141.612,E,2,10,,1062,M,,M,,*5D

$GPRMC,013745,A,4047.899,N,11141.610,E,019.0,340.4,100517,,*1C
$GPGGA,013745,4047.899,N,11141.610,E,2,09,,1062,M,,M,,*5B

$GPRMC,013746,A,4047.904,N,11141.607,E,018.7,339.8,100517,,*18
$GPGGA,013746,4047.904,N,11141.607,E,2,10,,1062,M,,M,,*53

$GPRMC,013747,A,4047.909,N,11141.605,E,019.0,339.3,100517,,*1B
$GPGGA,013747,4047.909,N,11141.605,E,2,10,,1062,M,,M,,*5D

$GPRMC,013748,A,4047.914,N,11141.603,E,017.5,339.9,100517,,*1F
$GPGGA,013748,4047.914,N,11141.603,E,2,10,,1062,M,,M,,*58

$GPRMC,013749,A,4047.919,N,11141.601,E,016.6,340.6,100517,,*12
$GPGGA,013749,4047.919,N,11141.601,E,2,10,,1062,M,,M,,*56

$GPRMC,013750,A,4047.923,N,11141.599,E,015.5,340.9,100517,,*1E
$GPGGA,013750,4047.923,N,11141.599,E,2,10,,1063,M,,M,,*54

$GPRMC,013751,A,4047.927,N,11141.597,E,014.4,340.9,100517,,*15
$GPGGA,013751,4047.927,N,11141.597,E,2,10,,1063,M,,M,,*5F

$GPRMC,013752,A,4047.930,N,11141.594,E,013.3,340.4,100517,,*1E
$GPGGA,013752,4047.930,N,11141.594,E,2,09,,1064,M,,M,,*56

$GPRMC,013753,A,4047.934,N,11141.593,E,012.3,339.6,100517,,*11
$GPGGA,013753,4047.934,N,11141.593,E,2,09,,1064,M,,M,,*54

$GPRMC,013754,A,4047.937,N,11141.591,E,011.1,339.0,100517,,*10
$GPGGA,013754,4047.937,N,11141.591,E,2,09,,1064,M,,M,,*52

$GPRMC,013755,A,4047.939,N,11141.590,E,009.8,338.7,100517,,*18
$GPGGA,013755,4047.939,N,11141.590,E,2,09,,1064,M,,M,,*5C

$GPRMC,013756,A,4047.942,N,11141.589,E,009.5,338.4,100517,,*11
$GPGGA,013756,4047.942,N,11141.589,E,2,09,,1063,M,,M,,*5C

$GPRMC,013757,A,4047.945,N,11141.587,E,010.2,344.7,100517,,*1E
$GPGGA,013757,4047.945,N,11141.587,E,2,09,,1063,M,,M,,*54

$GPRMC,013758,A,4047.947,N,11141.587,E,010.0,344.9,100517,,*1F
$GPGGA,013758,4047.947,N,11141.587,E,2,10,,1063,M,,M,,*51

$GPRMC,013759,A,4047.950,N,11141.586,E,008.6,347.4,100517,,*18
$GPGGA,013759,4047.950,N,11141.586,E,2,10,,1063,M,,M,,*57

$GPRMC,013800,A,4047.952,N,11141.586,E,007.9,354.1,100517,,*1E
$GPGGA,013800,4047.952,N,11141.586,E,2,10,,1062,M,,M,,*57

$GPRMC,013801,A,4047.955,N,11141.585,E,008.6,353.3,100517,,*1E
$GPGGA,013801,4047.955,N,11141.585,E,2,10,,1062,M,,M,,*52

$GPRMC,013802,A,4047.957,N,11141.584,E,009.3,352.4,100517,,*1C
$GPGGA,013802,4047.957,N,11141.584,E,2,10,,1062,M,,M,,*52

$GPRMC,013803,A,4047.959,N,11141.583,E,008.0,351.4,100517,,*15
$GPGGA,013803,4047.959,N,11141.583,E,2,10,,1062,M,,M,,*5A

$GPRMC,013804,A,4047.961,N,11141.582,E,006.9,350.5,100517,,*1F
$GPGGA,013804,4047.961,N,11141.582,E,2,10,,1062,M,,M,,*57

$GPRMC,013805,A,4047.963,N,11141.582,E,004.5,349.3,100517,,*1C
$GPGGA,013805,4047.963,N,11141.582,E,2,10,,1062,M,,M,,*54

$GPRMC,013806,A,4047.964,N,11141.581,E,003.2,345.4,100517,,*10
$GPGGA,013806,4047.964,N,11141.581,E,2,10,,1062,M,,M,,*53

$GPRMC,013807,A,4047.964,N,11141.582,E,002.2,345.4,100517,,*13
$GPGGA,013807,4047.964,N,11141.582,E,2,10,,1063,M,,M,,*50

$GPRMC,013808,A,4047.965,N,11141.581,E,000.1,345.4,100517,,*1F
$GPGGA,013808,4047.965,N,11141.581,E,2,10,,1063,M,,M,,*5D

$GPRMC,013809,A,4047.965,N,11141.581,E,000.0,345.4,100517,,*1F
$GPGGA,013809,4047.965,N,11141.581,E,2,10,,1063,M,,M,,*5C

$GPRMC,013810,A,4047.966,N,11141.580,E,000.0,345.4,100517,,*15
$GPGGA,013810,4047.966,N,11141.580,E,2,10,,1064,M,,M,,*51

$GPRMC,013811,A,4047.966,N,11141.580,E,000.0,345.4,100517,,*14
$GPGGA,013811,4047.966,N,11141.580,E,2,10,,1064,M,,M,,*50

$GPRMC,013812,A,4047.966,N,11141.580,E,000.0,345.4,100517,,*17
$GPGGA,013812,4047.966,N,11141.580,E,2,09,,1064,M,,M,,*5B

$GPRMC,013813,A,4047.966,N,11141.580,E,000.0,345.4,100517,,*16
$GPGGA,013813,4047.966,N,11141.580,E,2,09,,1064,M,,M,,*5A

$GPRMC,013814,A,4047.966,N,11141.580,E,000.0,345.4,100517,,*11
$GPGGA,013814,4047.966,N,11141.580,E,2,09,,1064,M,,M,,*5D

$GPRMC,013815,A,4047.966,N,11141.580,E,000.0,345.4,100517,,*10
$GPGGA,013815,4047.966,N,11141.580,E,2,09,,1064,M,,M,,*5C

$GPRMC,013816,A,4047.966,N,11141.580,E,000.0,345.4,100517,,*13
$GPGGA,013816,4047.966,N,11141.580,E,2,09,,1064,M,,M,,*5F

$GPRMC,013817,A,4047.966,N,11141.580,E,000.0,345.4,100517,,*12
$GPGGA,013817,4047.966,N,11141.580,E,2,09,,1064,M,,M,,*5E

$GPRMC,013818,A,4047.966,N,11141.580,E,000.0,345.4,100517,,*1D
$GPGGA,013818,4047.966,N,11141.580,E,2,09,,1064,M,,M,,*51

$GPRMC,013819,A,4047.967,N,11141.580,E,001.6,345.4,100517,,*1A
$GPGGA,013819,4047.967,N,11141.580,E,2,09,,1064,M,,M,,*51

$GPRMC,013820,A,4047.967,N,11141.579,E,002.5,345.4,100517,,*16
$GPGGA,013820,4047.967,N,11141.579,E,2,09,,1064,M,,M,,*5D

$GPRMC,013821,A,4047.969,N,11141.579,E,002.9,337.4,100517,,*10
$GPGGA,013821,4047.969,N,11141.579,E,2,10,,1064,M,,M,,*5A

$GPRMC,013822,A,4047.970,N,11141.579,E,002.2,340.6,100517,,*12
$GPGGA,013822,4047.970,N,11141.579,E,2,10,,1064,M,,M,,*51

$GPRMC,013823,A,4047.970,N,11141.578,E,000.8,341.4,100517,,*19
$GPGGA,013823,4047.970,N,11141.578,E,2,10,,1064,M,,M,,*51

$GPRMC,013824,A,4047.970,N,11141.578,E,000.0,341.4,100517,,*16
$GPGGA,013824,4047.970,N,11141.578,E,2,10,,1064,M,,M,,*56

$GPRMC,013825,A,4047.971,N,11141.578,E,000.0,341.4,100517,,*16
$GPGGA,013825,4047.971,N,11141.578,E,2,10,,1064,M,,M,,*56

$GPRMC,013826,A,4047.971,N,11141.578,E,000.0,341.4,100517,,*15
$GPGGA,013826,4047.971,N,11141.578,E,2,10,,1064,M,,M,,*55

$GPRMC,013827,A,4047.971,N,11141.578,E,000.0,341.4,100517,,*14
$GPGGA,013827,4047.971,N,11141.578,E,2,10,,1064,M,,M,,*54

$GPRMC,013828,A,4047.971,N,11141.578,E,000.0,341.4,100517,,*1B
$GPGGA,013828,4047.971,N,11141.578,E,2,10,,1064,M,,M,,*5B

$GPRMC,013829,A,4047.971,N,11141.578,E,000.0,341.4,100517,,*1A
$GPGGA,013829,4047.971,N,11141.578,E,2,10,,1064,M,,M,,*5A

$GPRMC,013830,A,4047.971,N,11141.578,E,000.0,341.4,100517,,*12
$GPGGA,013830,4047.971,N,11141.578,E,2,10,,1064,M,,M,,*52

$GPRMC,013831,A,4047.971,N,11141.578,E,000.0,341.4,100517,,*13
$GPGGA,013831,4047.971,N,11141.578,E,2,10,,1064,M,,M,,*53

$GPRMC,013832,A,4047.971,N,11141.578,E,000.0,341.4,100517,,*10
$GPGGA,013832,4047.971,N,11141.578,E,2,10,,1064,M,,M,,*50

$GPRMC,013833,A,4047.971,N,11141.578,E,000.0,341.4,100517,,*11
$GPGGA,013833,4047.971,N,11141.578,E,2,10,,1064,M,,M,,*51

$GPRMC,013834,A,4047.971,N,11141.578,E,000.0,341.4,100517,,*16
$GPGGA,013834,4047.971,N,11141.578,E,2,10,,1064,M,,M,,*56

$GPRMC,013835,A,4047.971,N,11141.578,E,000.0,341.4,100517,,*17
$GPGGA,013835,4047.971,N,11141.578,E,2,10,,1064,M,,M,,*57

$GPRMC,013836,A,4047.971,N,11141.578,E,000.0,341.4,100517,,*14
$GPGGA,013836,4047.971,N,11141.578,E,2,10,,1064,M,,M,,*54

$GPRMC,013837,A,4047.972,N,11141.578,E,001.2,335.6,100517,,*14
$GPGGA,013837,4047.972,N,11141.578,E,2,10,,1064,M,,M,,*56

$GPRMC,013838,A,4047.972,N,11141.578,E,001.6,338.4,100517,,*10
$GPGGA,013838,4047.972,N,11141.578,E,2,10,,1064,M,,M,,*59

$GPRMC,013839,A,4047.973,N,11141.578,E,001.4,345.1,100517,,*1D
$GPGGA,013839,4047.973,N,11141.578,E,2,10,,1064,M,,M,,*59

$GPRMC,013840,A,4047.973,N,11141.577,E,001.5,344.4,100517,,*19
$GPGGA,013840,4047.973,N,11141.577,E,2,10,,1064,M,,M,,*58

$GPRMC,013841,A,4047.974,N,11141.577,E,001.7,343.8,100517,,*16
$GPGGA,013841,4047.974,N,11141.577,E,2,10,,1064,M,,M,,*5E

$GPRMC,013842,A,4047.974,N,11141.577,E,001.5,346.0,100517,,*1A
$GPGGA,013842,4047.974,N,11141.577,E,2,09,,1064,M,,M,,*55

$GPRMC,013843,A,4047.975,N,11141.577,E,001.0,348.3,100517,,*12
$GPGGA,013843,4047.975,N,11141.577,E,2,09,,1064,M,,M,,*55

$GPRMC,013844,A,4047.975,N,11141.577,E,000.7,356.5,100517,,*1A
$GPGGA,013844,4047.975,N,11141.577,E,2,09,,1064,M,,M,,*52

$GPRMC,013845,A,4047.975,N,11141.577,E,000.4,356.5,100517,,*18
$GPGGA,013845,4047.975,N,11141.577,E,2,10,,1064,M,,M,,*5B

$GPRMC,013846,A,4047.975,N,11141.577,E,000.4,356.5,100517,,*1B
$GPGGA,013846,4047.975,N,11141.577,E,2,09,,1063,M,,M,,*57

$GPRMC,013847,A,4047.975,N,11141.577,E,000.5,351.0,100517,,*19
$GPGGA,013847,4047.975,N,11141.577,E,2,09,,1063,M,,M,,*56

$GPRMC,013848,A,4047.976,N,11141.577,E,000.7,338.0,100517,,*18
$GPGGA,013848,4047.976,N,11141.577,E,2,09,,1063,M,,M,,*5A

$GPRMC,013849,A,4047.976,N,11141.577,E,001.0,334.6,100517,,*15
$GPGGA,013849,4047.976,N,11141.577,E,2,09,,1063,M,,M,,*5B

$GPRMC,013850,A,4047.976,N,11141.577,E,000.6,351.2,100517,,*1D
$GPGGA,013850,4047.976,N,11141.577,E,2,10,,1063,M,,M,,*5B

$GPRMC,013851,A,4047.976,N,11141.577,E,000.0,351.2,100517,,*1A
$GPGGA,013851,4047.976,N,11141.577,E,2,08,,1063,M,,M,,*53

$GPRMC,013852,A,4047.976,N,11141.577,E,000.0,351.2,100517,,*19
$GPGGA,013852,4047.976,N,11141.577,E,2,09,,1063,M,,M,,*51

$GPRMC,013853,A,4047.976,N,11141.577,E,000.0,351.2,100517,,*18
$GPGGA,013853,4047.976,N,11141.577,E,2,09,,1063,M,,M,,*50

$GPRMC,013854,A,4047.976,N,11141.577,E,000.0,351.2,100517,,*1F
$GPGGA,013854,4047.976,N,11141.577,E,2,09,,1063,M,,M,,*57

$GPRMC,013855,A,4047.976,N,11141.577,E,000.0,351.2,100517,,*1E
$GPGGA,013855,4047.976,N,11141.577,E,2,09,,1063,M,,M,,*56

$GPRMC,013856,A,4047.976,N,11141.577,E,000.0,351.2,100517,,*1D
$GPGGA,013856,4047.976,N,11141.577,E,2,09,,1063,M,,M,,*55

$GPRMC,013857,A,4047.976,N,11141.577,E,000.0,351.2,100517,,*1C
$GPGGA,013857,4047.976,N,11141.577,E,2,09,,1063,M,,M,,*54

$GPRMC,013858,A,4047.976,N,11141.577,E,000.0,351.2,100517,,*13
$GPGGA,013858,4047.976,N,11141.577,E,2,09,,1063,M,,M,,*5B

$GPRMC,013859,A,4047.976,N,11141.577,E,000.0,351.2,100517,,*12
$GPGGA,013859,4047.976,N,11141.577,E,2,10,,1063,M,,M,,*52

$GPRMC,013900,A,4047.976,N,11141.577,E,000.0,351.2,100517,,*1F
$GPGGA,013900,4047.976,N,11141.577,E,2,10,,1063,M,,M,,*5F

$GPRMC,013901,A,4047.976,N,11141.577,E,000.0,351.2,100517,,*1E
$GPGGA,013901,4047.976,N,11141.577,E,2,10,,1063,M,,M,,*5E

$GPRMC,013902,A,4047.976,N,11141.577,E,000.0,351.2,100517,,*1D
$GPGGA,013902,4047.976,N,11141.577,E,2,10,,1063,M,,M,,*5D

$GPRMC,013903,A,4047.976,N,11141.577,E,000.0,351.2,100517,,*1C
$GPGGA,013903,4047.976,N,11141.577,E,2,10,,1063,M,,M,,*5C

$GPRMC,013904,A,4047.976,N,11141.577,E,000.0,351.2,100517,,*1B
$GPGGA,013904,4047.976,N,11141.577,E,2,10,,1063,M,,M,,*5B

$GPRMC,013905,A,4047.976,N,11141.577,E,000.0,351.2,100517,,*1A
$GPGGA,013905,4047.976,N,11141.577,E,2,10,,1063,M,,M,,*5A

$GPRMC,013906,A,4047.976,N,11141.577,E,000.0,351.2,100517,,*19
$GPGGA,013906,4047.976,N,11141.577,E,2,09,,1063,M,,M,,*51

$GPRMC,013907,A,4047.976,N,11141.577,E,000.0,351.2,100517,,*18
$GPGGA,013907,4047.976,N,11141.577,E,2,09,,1063,M,,M,,*50

$GPRMC,013908,A,4047.976,N,11141.577,E,000.0,351.2,100517,,*17
$GPGGA,013908,4047.976,N,11141.577,E,2,10,,1063,M,,M,,*57

$GPRMC,013909,A,4047.976,N,11141.577,E,000.0,351.2,100517,,*16
$GPGGA,013909,4047.976,N,11141.577,E,2,10,,1063,M,,M,,*56

$GPRMC,013910,A,4047.976,N,11141.577,E,000.0,351.2,100517,,*1E
$GPGGA,013910,4047.976,N,11141.577,E,2,10,,1063,M,,M,,*5E

$GPRMC,013911,A,4047.976,N,11141.577,E,000.0,351.2,100517,,*1F
$GPGGA,013911,4047.976,N,11141.577,E,2,10,,1063,M,,M,,*5F

$GPRMC,013912,A,4047.976,N,11141.577,E,000.0,351.2,100517,,*1C
$GPGGA,013912,4047.976,N,11141.577,E,2,10,,1063,M,,M,,*5C

$GPRMC,013913,A,4047.977,N,11141.576,E,002.5,323.8,100517,,*15
$GPGGA,013913,4047.977,N,11141.576,E,2,10,,1063,M,,M,,*5D

$GPRMC,013914,A,4047.978,N,11141.575,E,006.0,324.5,100517,,*15
$GPGGA,013914,4047.978,N,11141.575,E,2,10,,1063,M,,M,,*56

$GPRMC,013915,A,4047.981,N,11141.574,E,008.0,325.9,100517,,*10
$GPGGA,013915,4047.981,N,11141.574,E,2,09,,1063,M,,M,,*58

$GPRMC,013916,A,4047.983,N,11141.573,E,009.2,326.8,100517,,*17
$GPGGA,013916,4047.983,N,11141.573,E,2,10,,1063,M,,M,,*56

$GPRMC,013917,A,4047.986,N,11141.572,E,011.8,328.2,100517,,*15
$GPGGA,013917,4047.986,N,11141.572,E,2,10,,1063,M,,M,,*53

$GPRMC,013918,A,4047.990,N,11141.570,E,012.3,329.7,100517,,*13
$GPGGA,013918,4047.990,N,11141.570,E,2,10,,1063,M,,M,,*59

$GPRMC,013919,A,4047.993,N,11141.569,E,011.1,331.0,100517,,*16
$GPGGA,013919,4047.993,N,11141.569,E,2,10,,1063,M,,M,,*53

$GPRMC,013920,A,4047.996,N,11141.567,E,010.6,332.2,100517,,*10
$GPGGA,013920,4047.996,N,11141.567,E,2,10,,1063,M,,M,,*52

$GPRMC,013921,A,4047.998,N,11141.566,E,008.9,333.4,100517,,*1F
$GPGGA,013921,4047.998,N,11141.566,E,2,10,,1063,M,,M,,*5C

$GPRMC,013922,A,4048.000,N,11141.565,E,006.9,334.3,100517,,*16
$GPGGA,013922,4048.000,N,11141.565,E,2,10,,1064,M,,M,,*5C

$GPRMC,013923,A,4048.002,N,11141.564,E,007.8,335.2,100517,,*14
$GPGGA,013923,4048.002,N,11141.564,E,2,10,,1064,M,,M,,*5E

$GPRMC,013924,A,4048.005,N,11141.562,E,009.1,336.0,100517,,*14
$GPGGA,013924,4048.005,N,11141.562,E,2,10,,1065,M,,M,,*59

$GPRMC,013925,A,4048.007,N,11141.560,E,009.9,336.9,100517,,*14
$GPGGA,013925,4048.007,N,11141.560,E,2,10,,1066,M,,M,,*5B

$GPRMC,013926,A,4048.010,N,11141.559,E,010.3,337.6,100517,,*17
$GPGGA,013926,4048.010,N,11141.559,E,2,10,,1066,M,,M,,*54

$GPRMC,013927,A,4048.013,N,11141.557,E,012.2,339.7,100517,,*17
$GPGGA,013927,4048.013,N,11141.557,E,2,10,,1067,M,,M,,*59

$GPRMC,013928,A,4048.016,N,11141.555,E,013.7,340.9,100517,,*1B
$GPGGA,013928,4048.016,N,11141.555,E,2,10,,1067,M,,M,,*51

$GPRMC,013929,A,4048.020,N,11141.554,E,014.5,341.7,100517,,*14
$GPGGA,013929,4048.020,N,11141.554,E,2,10,,1068,M,,M,,*5B

$GPRMC,013930,A,4048.024,N,11141.552,E,014.6,342.2,100517,,*1B
$GPGGA,013930,4048.024,N,11141.552,E,2,10,,1069,M,,M,,*50

$GPRMC,013931,A,4048.028,N,11141.550,E,014.1,342.3,100517,,*12
$GPGGA,013931,4048.028,N,11141.550,E,2,10,,1069,M,,M,,*5F

$GPRMC,013931,A,4048.028,N,11141.550,E,014.1,342.3,100517,,*12
$GPGGA,013931,4048.028,N,11141.550,E,2,10,,1069,M,,M,,*5F

$GPRMC,013932,A,4048.031,N,11141.549,E,012.4,341.9,100517,,*1B
$GPGGA,013932,4048.031,N,11141.549,E,2,10,,1069,M,,M,,*5C

$GPRMC,013933,A,4048.034,N,11141.547,E,009.5,341.9,100517,,*1A
$GPGGA,013933,4048.034,N,11141.547,E,2,10,,1069,M,,M,,*56

$GPRMC,013934,A,4048.037,N,11141.546,E,007.8,341.7,100517,,*12
$GPGGA,013934,4048.037,N,11141.546,E,2,10,,1069,M,,M,,*53

$GPRMC,013935,A,4048.039,N,11141.545,E,008.7,342.2,100517,,*18
$GPGGA,013935,4048.039,N,11141.545,E,2,09,,1068,M,,M,,*56

$GPRMC,013936,A,4048.042,N,11141.544,E,010.5,342.2,100517,,*1D
$GPGGA,013936,4048.042,N,11141.544,E,2,10,,1069,M,,M,,*51

$GPRMC,013937,A,4048.045,N,11141.543,E,010.9,341.7,100517,,*16
$GPGGA,013937,4048.045,N,11141.543,E,2,09,,1069,M,,M,,*58

$GPRMC,013938,A,4048.047,N,11141.541,E,011.2,340.9,100517,,*1C
$GPGGA,013938,4048.047,N,11141.541,E,2,09,,1068,M,,M,,*56

$GPRMC,013939,A,4048.051,N,11141.540,E,012.1,339.6,100517,,*1A
$GPGGA,013939,4048.051,N,11141.540,E,2,09,,1068,M,,M,,*51

$GPRMC,013940,A,4048.054,N,11141.538,E,014.5,338.2,100517,,*19
$GPGGA,013940,4048.054,N,11141.538,E,2,09,,1067,M,,M,,*5A

$GPRMC,013941,A,4048.058,N,11141.535,E,016.8,337.5,100517,,*1E
$GPGGA,013941,4048.058,N,11141.535,E,2,08,,1067,M,,M,,*5B

$GPRMC,013942,A,4048.063,N,11141.533,E,017.4,338.0,100517,,*14
$GPGGA,013942,4048.063,N,11141.533,E,2,09,,1067,M,,M,,*57

$GPRMC,013944,A,4048.072,N,11141.529,E,015.4,339.2,100517,,*18
$GPGGA,013944,4048.072,N,11141.529,E,2,09,,1067,M,,M,,*5A

$GPRMC,013945,A,4048.076,N,11141.527,E,016.1,341.1,100517,,*19
$GPGGA,013945,4048.076,N,11141.527,E,2,09,,1067,M,,M,,*51

$GPRMC,013946,A,4048.081,N,11141.526,E,017.1,343.0,100517,,*11
$GPGGA,013946,4048.081,N,11141.526,E,2,09,,1068,M,,M,,*54

$GPRMC,013946,A,4048.081,N,11141.526,E,017.1,343.0,100517,,*11
$GPGGA,013946,4048.081,N,11141.526,E,2,09,,1068,M,,M,,*54

$GPRMC,013948,A,4048.092,N,11141.523,E,019.9,345.9,100517,,*11
$GPGGA,013948,4048.092,N,11141.523,E,2,08,,1068,M,,M,,*5C

$GPRMC,013948,A,4048.092,N,11141.523,E,019.9,345.9,100517,,*11
$GPGGA,013948,4048.092,N,11141.523,E,2,08,,1069,M,,M,,*5D

$GPRMC,013950,A,4048.103,N,11141.519,E,020.2,346.0,100517,,*13
$GPGGA,013950,4048.103,N,11141.519,E,2,08,,1069,M,,M,,*54

$GPRMC,013950,A,4048.103,N,11141.519,E,020.2,346.0,100517,,*13
$GPGGA,013950,4048.103,N,11141.519,E,2,09,,1070,M,,M,,*5D

$GPRMC,013951,A,4048.108,N,11141.516,E,020.4,345.7,100517,,*14
$GPGGA,013951,4048.108,N,11141.516,E,2,09,,1070,M,,M,,*58

$GPRMC,013952,A,4048.113,N,11141.513,E,021.3,345.4,100517,,*1D
$GPGGA,013952,4048.113,N,11141.513,E,2,09,,1070,M,,M,,*54

$GPRMC,013953,A,4048.119,N,11141.510,E,021.4,344.6,100517,,*11
$GPGGA,013953,4048.119,N,11141.510,E,2,09,,1070,M,,M,,*5C

$GPRMC,013955,A,4048.131,N,11141.505,E,021.7,342.0,100517,,*1A
$GPGGA,013955,4048.131,N,11141.505,E,2,09,,1070,M,,M,,*54

$GPRMC,013955,A,4048.131,N,11141.505,E,021.7,342.0,100517,,*1A
$GPGGA,013955,4048.131,N,11141.505,E,2,09,,1069,M,,M,,*5C

$GPRMC,013956,A,4048.137,N,11141.502,E,022.6,341.1,100517,,*18
$GPGGA,013956,4048.137,N,11141.502,E,2,09,,1069,M,,M,,*5E

$GPRMC,013957,A,4048.142,N,11141.499,E,021.6,340.5,100517,,*1E
$GPGGA,013957,4048.142,N,11141.499,E,2,10,,1070,M,,M,,*5E

$GPRMC,013958,A,4048.148,N,11141.496,E,020.0,340.5,100517,,*13
$GPGGA,013958,4048.148,N,11141.496,E,2,10,,1070,M,,M,,*54

$GPRMC,013959,A,4048.153,N,11141.494,E,019.0,341.6,100517,,*12
$GPGGA,013959,4048.153,N,11141.494,E,2,10,,1070,M,,M,,*5D

$GPRMC,014000,A,4048.158,N,11141.492,E,018.7,343.0,100517,,*1F
$GPGGA,014000,4048.158,N,11141.492,E,2,10,,1070,M,,M,,*52

$GPRMC,014002,A,4048.168,N,11141.488,E,018.6,343.7,100517,,*13
$GPGGA,014002,4048.168,N,11141.488,E,2,10,,1070,M,,M,,*58

$GPRMC,014002,A,4048.168,N,11141.488,E,018.6,343.7,100517,,*13
$GPGGA,014002,4048.168,N,11141.488,E,2,10,,1069,M,,M,,*50

$GPRMC,014004,A,4048.178,N,11141.483,E,018.9,341.3,100517,,*16
$GPGGA,014004,4048.178,N,11141.483,E,2,10,,1069,M,,M,,*5C

$GPRMC,014004,A,4048.178,N,11141.483,E,018.9,341.3,100517,,*16
$GPGGA,014004,4048.178,N,11141.483,E,2,10,,1070,M,,M,,*54

$GPRMC,014005,A,4048.183,N,11141.481,E,018.9,340.1,100517,,*12
$GPGGA,014005,4048.183,N,11141.481,E,2,10,,1069,M,,M,,*5B

$GPRMC,014006,A,4048.189,N,11141.478,E,018.3,340.0,100517,,*16
$GPGGA,014006,4048.189,N,11141.478,E,2,10,,1069,M,,M,,*54

$GPRMC,014007,A,4048.193,N,11141.476,E,018.3,340.2,100517,,*10
$GPGGA,014007,4048.193,N,11141.476,E,2,10,,1069,M,,M,,*50

$GPRMC,014008,A,4048.198,N,11141.473,E,017.9,340.5,100517,,*13
$GPGGA,014008,4048.198,N,11141.473,E,2,10,,1069,M,,M,,*51

$GPRMC,014009,A,4048.203,N,11141.471,E,017.9,341.2,100517,,*17
$GPGGA,014009,4048.203,N,11141.471,E,2,10,,1070,M,,M,,*5B

$GPRMC,014010,A,4048.207,N,11141.469,E,017.7,341.3,100517,,*1D
$GPGGA,014010,4048.207,N,11141.469,E,2,10,,1070,M,,M,,*5E

$GPRMC,014011,A,4048.212,N,11141.466,E,017.4,341.1,100517,,*16
$GPGGA,014011,4048.212,N,11141.466,E,2,10,,1070,M,,M,,*54

$GPRMC,014012,A,4048.216,N,11141.464,E,016.8,341.3,100517,,*1C
$GPGGA,014012,4048.216,N,11141.464,E,2,10,,1070,M,,M,,*51

$GPRMC,014013,A,4048.221,N,11141.462,E,016.8,342.1,100517,,*1E
$GPGGA,014013,4048.221,N,11141.462,E,2,10,,1070,M,,M,,*52

$GPRMC,014014,A,4048.225,N,11141.460,E,017.2,342.3,100517,,*16
$GPGGA,014014,4048.225,N,11141.460,E,2,10,,1070,M,,M,,*53

$GPRMC,014016,A,4048.235,N,11141.455,E,019.9,340.2,100517,,*15
$GPGGA,014016,4048.235,N,11141.455,E,2,10,,1071,M,,M,,*57

$GPRMC,014016,A,4048.235,N,11141.455,E,019.9,340.2,100517,,*15
$GPGGA,014016,4048.235,N,11141.455,E,2,10,,1070,M,,M,,*56

$GPRMC,014017,A,4048.240,N,11141.452,E,020.1,339.4,100517,,*1B
$GPGGA,014017,4048.240,N,11141.452,E,2,10,,1071,M,,M,,*53

$GPRMC,014019,A,4048.250,N,11141.447,E,018.3,339.5,100517,,*18
$GPGGA,014019,4048.250,N,11141.447,E,2,10,,1071,M,,M,,*58

$GPRMC,014019,A,4048.250,N,11141.447,E,018.3,339.5,100517,,*18
$GPGGA,014019,4048.250,N,11141.447,E,2,10,,1071,M,,M,,*58

$GPRMC,014020,A,4048.255,N,11141.445,E,016.4,340.6,100517,,*11
$GPGGA,014020,4048.255,N,11141.445,E,2,10,,1071,M,,M,,*55

$GPRMC,014022,A,4048.262,N,11141.441,E,013.2,340.4,100517,,*12
$GPGGA,014022,4048.262,N,11141.441,E,2,10,,1071,M,,M,,*57

$GPRMC,014022,A,4048.262,N,11141.441,E,013.2,340.4,100517,,*12
$GPGGA,014022,4048.262,N,11141.441,E,2,10,,1071,M,,M,,*57

$GPRMC,014023,A,4048.265,N,11141.439,E,011.1,339.8,100517,,*18
$GPGGA,014023,4048.265,N,11141.439,E,2,10,,1071,M,,M,,*5E

$GPRMC,014024,A,4048.268,N,11141.438,E,009.0,339.6,100517,,*15
$GPGGA,014024,4048.268,N,11141.438,E,2,10,,1071,M,,M,,*55

$GPRMC,014025,A,4048.270,N,11141.438,E,005.6,340.3,100517,,*1C
$GPGGA,014025,4048.270,N,11141.438,E,2,10,,1071,M,,M,,*5D

$GPRMC,014026,A,4048.272,N,11141.438,E,002.9,340.6,100517,,*10
$GPGGA,014026,4048.272,N,11141.438,E,2,10,,1070,M,,M,,*5D

$GPRMC,014028,A,4048.273,N,11141.438,E,000.1,340.9,100517,,*1A
$GPGGA,014028,4048.273,N,11141.438,E,2,10,,1070,M,,M,,*52

$GPRMC,014029,A,4048.273,N,11141.438,E,000.1,340.9,100517,,*1B
$GPGGA,014029,4048.273,N,11141.438,E,2,10,,1070,M,,M,,*53

$GPRMC,014029,A,4048.273,N,11141.438,E,000.1,340.9,100517,,*1B
$GPGGA,014029,4048.273,N,11141.438,E,2,10,,1070,M,,M,,*53

$GPRMC,014030,A,4048.273,N,11141.438,E,000.0,340.9,100517,,*12
$GPGGA,014030,4048.273,N,11141.438,E,2,10,,1070,M,,M,,*5B

$GPRMC,014031,A,4048.273,N,11141.437,E,000.0,340.9,100517,,*1C
$GPGGA,014031,4048.273,N,11141.437,E,2,10,,1070,M,,M,,*55

$GPRMC,014032,A,4048.273,N,11141.437,E,000.0,340.9,100517,,*1F
$GPGGA,014032,4048.273,N,11141.437,E,2,10,,1070,M,,M,,*56

$GPRMC,014034,A,4048.273,N,11141.437,E,000.0,340.9,100517,,*19
$GPGGA,014034,4048.273,N,11141.437,E,2,10,,1070,M,,M,,*50

$GPRMC,014034,A,4048.273,N,11141.437,E,000.0,340.9,100517,,*19
$GPGGA,014034,4048.273,N,11141.437,E,2,10,,1070,M,,M,,*50

$GPRMC,014035,A,4048.273,N,11141.437,E,000.0,340.9,100517,,*18
$GPGGA,014035,4048.273,N,11141.437,E,2,10,,1070,M,,M,,*51

$GPRMC,014036,A,4048.273,N,11141.437,E,000.0,340.9,100517,,*1B
$GPGGA,014036,4048.273,N,11141.437,E,2,10,,1070,M,,M,,*52

